[
  {
    "id": "1",
    "name": "Государственный Эрмитаж",
    "hours": "Вт, Чт, Сб, Вс 10:30–18:00; Ср, Пт 10:30–21:00; Пн — выходной",
    "address": "Дворцовая пл., 2",
    "tickets": "От 500 ₽; бесплатно до 18 лет",
    "url": "https://hermitagemuseum.org/"
  },
  {
    "id": "2",
    "name": "Русский музей (Михайловский дворец)",
    "hours": "Пн, Ср, Пт, Сб, Вс 10:00–18:00; Чт 13:00–21:00; Вт — выходной",
    "address": "Инженерная ул., 4",
    "tickets": "От 500 ₽; комбинированные билеты",
    "url": "https://rusmuseum.ru/"
  },
  {
    "id": "3",
    "name": "Музей антропологии и этнографии (Кунсткамера)",
    "hours": "Ср–Вс 11:00–19:00; Пн, Вт — выходной",
    "address": "Университетская наб., 3",
    "tickets": "Взрослый 500 ₽; льготы",
    "url": "https://kunstkamera.ru/"
  },
  {
    "id": "4",
    "name": "Музей Фаберже",
    "hours": "Ежедневно 10:00–21:00",
    "address": "Наб. реки Фонтанки, 21",
    "tickets": "От 650 ₽; аудиогид отдельно",
    "url": "https://fabergemuseum.ru/"
  },
  {
    "id": "5",
    "name": "Эрарта Музей современного искусства",
    "hours": "Пн–Вс 10:00–22:00 (Ср — выходной)",
    "address": "29-я линия В.О., 2",
    "tickets": "От 1200 ₽; льготы",
    "url": "https://erarta.com/"
  },
  {
    "id": "6",
    "name": "Музей истории Санкт-Петербурга (Петропавловская крепость)",
    "hours": "Ежедневно 10:00–18:00; Ср до 17:00",
    "address": "Петропавловская крепость, 3",
    "tickets": "Комплексные билеты от 750 ₽",
    "url": "https://spbmuseum.ru/"
  },
  {
    "id": "7",
    "name": "Центральный военно-морской музей",
    "hours": "Ср–Вс 11:00–19:00; Пн, Вт — выходной",
    "address": "Площадь Труда, 5",
    "tickets": "Взрослый 500 ₽; льготы",
    "url": "https://navalmuseum.ru/"
  },
  {
    "id": "8",
    "name": "Музей железных дорог России",
    "hours": "Ежедневно 10:00–18:00; Ср 14:00–20:00; Пн — выходной",
    "address": "Библиотечная пл., 4",
    "tickets": "От 400 ₽; бесплатно детям до 6 лет",
    "url": "https://rzd-museum.ru/"
  },
  {
    "id": "9",
    "name": "Музей современного искусства Street Art Museum",
    "hours": "Сб–Вс 12:00–20:00; Пн–Пт — по предварительной записи",
    "address": "Шоссе Революции, 84",
    "tickets": "От 400 ₽; дети до 7 лет бесплатно",
    "url": "https://streetartmuseum.ru/"
  },
  {
    "id": "10",
    "name": "Музей Артиллерии, инженерных войск и войск связи",
    "hours": "Ср–Вс 11:00–18:00; Пн, Вт — выходной",
    "address": "Александровский парк, 7",
    "tickets": "От 500 ₽; льготы",
    "url": "https://artillery-museum.ru/"
  },
  {
    "id": "11",
    "name": "Музей обороны и блокады Ленинграда",
    "hours": "Ежедневно 10:00–18:00",
    "address": "Соляной пер., 9",
    "tickets": "От 300 ₽; школьникам и студентам скидки",
    "url": "https://blokadamus.ru/"
  },
  {
    "id": "12",
    "name": "Музей-квартира Пушкина на Мойке, 12",
    "hours": "Ср–Пн 10:30–18:00; Вт — выходной",
    "address": "Набережная реки Мойки, 12",
    "tickets": "От 400 ₽; льготы",
    "url": "https://pushkinmuseum.ru/"
  },
  {
    "id": "13",
    "name": "Музей Гранд Макет Россия",
    "hours": "Ежедневно 10:00–20:00",
    "address": "Московский пр., 124",
    "tickets": "От 800 ₽; дети до 3 лет бесплатно",
    "url": "https://grandmaket.ru/"
  },
  {
    "id": "14",
    "name": "Музей-квартира Римского-Корсакова",
    "hours": "Ср–Вс 11:00–19:00; Пн, Вт — выходной",
    "address": "Загородный пр., 28",
    "tickets": "От 200 ₽; льготы",
    "url": "https://glinka.spb.ru/"
  },
  {
    "id": "15",
    "name": "Музей-квартира Достоевского",
    "hours": "Ср–Пн 11:00–18:00; Вт — выходной",
    "address": "Кузнечный пер., 5/2",
    "tickets": "От 250 ₽; школьникам и студентам льготы",
    "url": "https://mdostoevsky.ru/"
  },
  {
    "id": "16",
    "name": "Музей истории религии",
    "hours": "Ср–Пн 10:00–18:00; Вт — выходной",
    "address": "Почтамтская ул., 14",
    "tickets": "От 300 ₽; льготы",
    "url": "https://mir.spb.ru/"
  },
  {
    "id": "17",
    "name": "Музей восковых фигур",
    "hours": "Ежедневно 10:00–22:00",
    "address": "Большая Морская ул., 17",
    "tickets": "От 400 ₽; дети до 6 лет бесплатно",
    "url": "https://waxmuseum.ru/"
  },
  {
    "id": "18",
    "name": "Музей космонавтики и ракетной техники имени Королёва",
    "hours": "Ср–Вс 11:00–18:00; Пн, Вт — выходной",
    "address": "Петроградская наб., 3",
    "tickets": "От 250 ₽; льготы",
    "url": "https://spbmuseum.ru/branch/museum-of-cosmonautics"
  },
  {
    "id": "19",
    "name": "Музей шоколада",
    "hours": "Ежедневно 11:00–20:00",
    "address": "Большая Конюшенная ул., 11",
    "tickets": "От 350 ₽; дегустация включена",
    "url": "https://chocoshop.ru/museum/"
  },
  {
    "id": "20",
    "name": "Музей оптических иллюзий",
    "hours": "Ежедневно 10:00–22:00",
    "address": "Большая Морская ул., 5",
    "tickets": "От 600 ₽; дети до 5 лет бесплатно",
    "url": "https://illusion-museum.ru/"
  }
]
