[
  {
    "id": 1,
    "name": "Государственный Эрмитаж",
    "address": "Дворцовая площадь, 2, Санкт-Петербург",
    "hours": "10:30–18:00 (ср–вс); пн, вт — выходной",
    "tickets": "от 500 ₽",
    "site": "https://www.hermitagemuseum.org"
  },
  {
    "id": 2,
    "name": "Русский музей",
    "address": "Инженерная ул., 4/2, Санкт-Петербург",
    "hours": "10:00–18:00 (ср–пн); вт — выходной",
    "tickets": "от 400 ₽",
    "site": "https://rusmuseum.ru"
  },
  {
    "id": 3,
    "name": "Кунсткамера (МАЭ РАН)",
    "address": "Университетская наб., 3, Санкт-Петербург",
    "hours": "11:00–19:00 (ср–вс); пн, вт — выходной",
    "tickets": "от 400 ₽",
    "site": "https://www.kunstkamera.ru"
  },
  {
    "id": 4,
    "name": "Петропавловская крепость — Музеи истории Петербурга",
    "address": "Петропавловская крепость, 3, Санкт-Петербург",
    "hours": "10:00–18:00",
    "tickets": "от 450 ₽",
    "site": "https://www.spbmuseum.ru"
  },
  {
    "id": 5,
    "name": "Музей Фаберже",
    "address": "наб. реки Фонтанки, 21, Санкт-Петербург",
    "hours": "10:00–20:45",
    "tickets": "от 650 ₽",
    "site": "https://fsv.ru/museum"
  },
  {
    "id": 6,
    "name": "Музей современного искусства «Эрарта»",
    "address": "29-я линия В.О., 2, Санкт-Петербург",
    "hours": "10:00–22:00 (ср–вс); пн, вт — выходной",
    "tickets": "от 1200 ₽",
    "site": "https://www.erarta.com"
  },
  {
    "id": 7,
    "name": "Царское Село — Музеи",
    "address": "г. Пушкин, Садовая ул., 7, Санкт-Петербург",
    "hours": "10:00–18:00",
    "tickets": "вариативно",
    "site": "https://tzar.ru"
  },
  {
    "id": 8,
    "name": "Павловск — Государственный музей-заповедник",
    "address": "г. Павловск, Садовая ул., 20, Ленинградская обл.",
    "hours": "10:00–18:00",
    "tickets": "вариативно",
    "site": "https://pavlovskmuseum.ru"
  },
  {
    "id": 9,
    "name": "Петродворец (Петергоф) — Музеи",
    "address": "г. Петергоф, Разводная ул., 2, Ленинградская обл.",
    "hours": "10:00–18:00 (сезонно)",
    "tickets": "вариативно",
    "site": "https://peterhofmuseum.ru"
  },
  {
    "id": 10,
    "name": "Музей обороны и блокады Ленинграда",
    "address": "Соляной пер., 9, Санкт-Петербург",
    "hours": "10:00–18:00; вт — выходной",
    "tickets": "от 300 ₽",
    "site": "https://gmobl.ru"
  },
  {
    "id": 11,
    "name": "Музей истории религии",
    "address": "Почтамтская ул., 14, Санкт-Петербург",
    "hours": "10:00–18:00; ср — до 21:00; пн — выходной",
    "tickets": "от 300 ₽",
    "site": "https://www.gmir.ru"
  },
  {
    "id": 12,
    "name": "Центральный военно-морской музей",
    "address": "Площадь Труда, 5, Санкт-Петербург",
    "hours": "11:00–18:00; ср — до 19:00; пн — выходной",
    "tickets": "от 400 ₽",
    "site": "https://navalmuseum.ru"
  },
  {
    "id": 13,
    "name": "Музей Арктики и Антарктики",
    "address": "ул. Марата, 24а, Санкт-Петербург",
    "hours": "10:00–18:00; пн — выходной",
    "tickets": "от 350 ₽",
    "site": "https://polarmuseum.ru"
  },
  {
    "id": 14,
    "name": "Музей городского электрического транспорта",
    "address": "Средний пр. В.О., 77, Санкт-Петербург",
    "hours": "10:00–18:00; пн, вт — выходной",
    "tickets": "от 300 ₽",
    "site": "https://spbtrm.ru"
  },
  {
    "id": 15,
    "name": "Кронштадтский форт «Константин» (Музей)",
    "address": "г. Кронштадт, Южная дорога, 1",
    "hours": "10:00–18:00 (сезонно)",
    "tickets": "вариативно",
    "site": "https://fort-const.ru"
  },
  {
    "id": 16,
    "name": "Музей политической истории России",
    "address": "ул. Куйбышева, 2–4, Санкт-Петербург",
    "hours": "10:00–18:00; чт — до 20:00; чт — кассы до 19:30; пн — выходной",
    "tickets": "от 300 ₽",
    "site": "https://political-museum.ru"
  },
  {
    "id": 17,
    "name": "Музей железных дорог России",
    "address": "Бтерминал Варшавский, наб. Обводного канала, 118, Санкт-Петербург",
    "hours": "10:00–18:00; ср — выходной",
    "tickets": "от 400 ₽",
    "site": "https://rzd-museum.ru"
  },
  {
    "id": 18,
    "name": "Музей Анны Ахматовой в Фонтанном Доме",
    "address": "Литейный пр., 53, Санкт-Петербург",
    "hours": "10:30–18:30; ср — до 20:00; пн — выходной",
    "tickets": "от 200 ₽",
    "site": "https://akhmatova.spb.ru"
  },
  {
    "id": 19,
    "name": "Дом музей Достоевского",
    "address": "Кузнечный пер., 5/2, Санкт-Петербург",
    "hours": "11:00–18:00; пн — выходной",
    "tickets": "от 300 ₽",
    "site": "https://md.spb.ru"
  },
  {
    "id": 20,
    "name": "Музей уличного искусства",
    "address": "шоссе Революции, 84, Санкт-Петербург",
    "hours": "сезонно; расписание см. на сайте",
    "tickets": "вариативно",
    "site": "https://streetartmuseum.ru"
  }
]
